{"type":"FeatureCollection","features":[{"type":"Feature","properties":{"OBJECTID":1,"NAME":"DOCTOR'S HOSPITAL - PARKWAY","ADDRNO":"00233","PREFIX":"W","STNAME":"PARKER","STTYPE":"RD","SUFFIX":" ","CITY":"HOUSTON","ZIP":"77076","ADMIN":2},"geometry":{"type":"Point","coordinates":[-95.40056033201498,29.859267971299754]}},{"type":"Feature","properties":{"OBJECTID":2,"NAME":"MEMORIAL SPRING SHADOWS GLEN HOSPITAL","ADDRNO":"02801","PREFIX":" ","STNAME":"GESSNER","STTYPE":" ","SUFFIX":" ","CITY":"HOUSTON","ZIP":"77080","ADMIN":2},"geometry":{"type":"Point","coordinates":[-95.54664571496768,29.824190753784023]}},{"type":"Feature","properties":{"OBJECTID":3,"NAME":"SPRING BRANCH MEDICAL CENTER","ADDRNO":"08850","PREFIX":" ","STNAME":"LONG POINT","STTYPE":" ","SUFFIX":" ","CITY":"HOUSTON","ZIP":"77055","ADMIN":2},"geometry":{"type":"Point","coordinates":[-95.50860544323402,29.803895560833933]}},{"type":"Feature","properties":{"OBJECTID":4,"NAME":"DOCTOR'S HOSPITAL - TIDWELL","ADDRNO":"00510","PREFIX":"W","STNAME":"TIDWELL","STTYPE":"RD","SUFFIX":" ","CITY":"HOUSTON","ZIP":"77091","ADMIN":2},"geometry":{"type":"Point","coordinates":[-95.40877192305014,29.847932909871066]}},{"type":"Feature","properties":{"OBJECTID":5,"NAME":"MEMORIAL HOSPITAL - NORTHWEST","ADDRNO":"01635","PREFIX":"N","STNAME":"LOOP","STTYPE":" ","SUFFIX":"W","CITY":"HOUSTON","ZIP":"77008","ADMIN":2},"geometry":{"type":"Point","coordinates":[-95.43064267335635,29.81145759053224]}},{"type":"Feature","properties":{"OBJECTID":6,"NAME":"SELECT SPECIALTY HOSPITAL","ADDRNO":"01917","PREFIX":" ","STNAME":"ASHLAND","STTYPE":" ","SUFFIX":" ","CITY":"HOUSTON","ZIP":"77008","ADMIN":2},"geometry":{"type":"Point","coordinates":[-95.40451132173685,29.80366084067103]}},{"type":"Feature","properties":{"OBJECTID":7,"NAME":"LYNDON B. JOHNSON HOSPITAL","ADDRNO":"05656","PREFIX":" ","STNAME":"KELLEY","STTYPE":" ","SUFFIX":" ","CITY":"HOUSTON","ZIP":"77026","ADMIN":1},"geometry":{"type":"Point","coordinates":[-95.31082408506295,29.811308448328543]}},{"type":"Feature","properties":{"OBJECTID":8,"NAME":"HCA W. HOUSTON MEDICAL CENTER","ADDRNO":"12141","PREFIX":" ","STNAME":"RICHMOND","STTYPE":"AVE","SUFFIX":" ","CITY":"HOUSTON","ZIP":"77082","ADMIN":2},"geometry":{"type":"Point","coordinates":[-95.5948161993013,29.7289017417635]}},{"type":"Feature","properties":{"OBJECTID":9,"NAME":"MEMORIAL HOSPITAL - MEMORIAL CITY","ADDRNO":"00920","PREFIX":" ","STNAME":"FROSTWOOD","STTYPE":" ","SUFFIX":" ","CITY":"HOUSTON","ZIP":"77024","ADMIN":2},"geometry":{"type":"Point","coordinates":[-95.54711172923257,29.781865605861718]}},{"type":"Feature","properties":{"OBJECTID":10,"NAME":"COLUMBIA ROSEWOOD MEDICAL CENTER","ADDRNO":"09200","PREFIX":" ","STNAME":"WESTHEIMER","STTYPE":" ","SUFFIX":" ","CITY":"HOUSTON","ZIP":"77063","ADMIN":2},"geometry":{"type":"Point","coordinates":[-95.52648785856393,29.738743457995636]}},{"type":"Feature","properties":{"OBJECTID":11,"NAME":"TWELVE OAKS HOSPITAL / BAYOU CITY MEDICAL CENTER","ADDRNO":"04200","PREFIX":" ","STNAME":"PORTSMOUTH","STTYPE":" ","SUFFIX":" ","CITY":"HOUSTON","ZIP":"77027","ADMIN":2},"geometry":{"type":"Point","coordinates":[-95.44504017470138,29.7310762554967]}},{"type":"Feature","properties":{"OBJECTID":12,"NAME":"CHRISTUS ST JOSEPH HOSPITAL","ADDRNO":"01919","PREFIX":" ","STNAME":"LA BRANCH","STTYPE":" ","SUFFIX":" ","CITY":"HOUSTON","ZIP":"77002","ADMIN":2},"geometry":{"type":"Point","coordinates":[-95.36588386731195,29.74698691254703]}},{"type":"Feature","properties":{"OBJECTID":13,"NAME":"RIVERSIDE GENERAL HOSPITAL","ADDRNO":"03204","PREFIX":" ","STNAME":"ENNIS ST","STTYPE":" ","SUFFIX":" ","CITY":"HOUSTON","ZIP":"77004","ADMIN":2},"geometry":{"type":"Point","coordinates":[-95.36107264893351,29.730719476799376]}},{"type":"Feature","properties":{"OBJECTID":14,"NAME":"HOUSTON RECOVERY","ADDRNO":"04514","PREFIX":" ","STNAME":"LYONS","STTYPE":"AVE","SUFFIX":" ","CITY":"HOUSTON","ZIP":"77020","ADMIN":2},"geometry":{"type":"Point","coordinates":[-95.32449835215336,29.775944031053044]}},{"type":"Feature","properties":{"OBJECTID":15,"NAME":"DOCTOR'S HOSPITAL - EAST LOOP","ADDRNO":"09339","PREFIX":"N","STNAME":"LOOP","STTYPE":" ","SUFFIX":"E","CITY":"HOUSTON","ZIP":"77029","ADMIN":2},"geometry":{"type":"Point","coordinates":[-95.26628996767224,29.790677945966575]}},{"type":"Feature","properties":{"OBJECTID":16,"NAME":"EAST HOUSTON REGIONAL MEDICAL CENTER","ADDRNO":"13111","PREFIX":" ","STNAME":"EAST FREEWAY","STTYPE":" ","SUFFIX":" ","CITY":"HOUSTON","ZIP":"77015","ADMIN":2},"geometry":{"type":"Point","coordinates":[-95.19348730648717,29.772492403986337]}},{"type":"Feature","properties":{"OBJECTID":17,"NAME":"SHARPSTOWN GENERAL HOSPITAL","ADDRNO":"06700","PREFIX":" ","STNAME":"BELLAIRE","STTYPE":"BLVD","SUFFIX":" ","CITY":"HOUSTON","ZIP":"77074","ADMIN":2},"geometry":{"type":"Point","coordinates":[-95.50228984614613,29.70662532873444]}},{"type":"Feature","properties":{"OBJECTID":18,"NAME":"WEST OAKS HOSPITAL","ADDRNO":"06500","PREFIX":" ","STNAME":"HORNWOOD","STTYPE":" ","SUFFIX":" ","CITY":"HOUSTON","ZIP":"77074","ADMIN":2},"geometry":{"type":"Point","coordinates":[-95.49741475722746,29.70955181915147]}},{"type":"Feature","properties":{"OBJECTID":19,"NAME":"MEMORIAL HOSPITAL - SOUTHWEST","ADDRNO":"07600","PREFIX":" ","STNAME":"BEECHNUT","STTYPE":" ","SUFFIX":" ","CITY":"HOUSTON","ZIP":"77074","ADMIN":2},"geometry":{"type":"Point","coordinates":[-95.52221794587197,29.693358639893084]}},{"type":"Feature","properties":{"OBJECTID":20,"NAME":"WEST PAVILION METHODIST DIAGNOSTIC CENTER","ADDRNO":"06447","PREFIX":" ","STNAME":"MAIN","STTYPE":"ST","SUFFIX":" ","CITY":"HOUSTON","ZIP":"77030","ADMIN":2},"geometry":{"type":"Point","coordinates":[-95.39949646330811,29.71252600976571]}},{"type":"Feature","properties":{"OBJECTID":21,"NAME":"ST LUKE'S EPISCOPAL HOSPITAL","ADDRNO":"06720","PREFIX":" ","STNAME":"BERTNER","STTYPE":" ","SUFFIX":" ","CITY":"HOUSTON","ZIP":"77030","ADMIN":2},"geometry":{"type":"Point","coordinates":[-95.40040471904206,29.707969785046146]}},{"type":"Feature","properties":{"OBJECTID":22,"NAME":"TEXAS CHILDREN HOSPITAL","ADDRNO":"06621","PREFIX":" ","STNAME":"FANNIN","STTYPE":" ","SUFFIX":" ","CITY":"HOUSTON","ZIP":"77030","ADMIN":2},"geometry":{"type":"Point","coordinates":[-95.4016165342294,29.707838523746528]}},{"type":"Feature","properties":{"OBJECTID":23,"NAME":"METHODIST HOSPITAL","ADDRNO":"06565","PREFIX":" ","STNAME":"FANNIN","STTYPE":" ","SUFFIX":" ","CITY":"HOUSTON","ZIP":"77030","ADMIN":2},"geometry":{"type":"Point","coordinates":[-95.39963825519152,29.709847241311728]}},{"type":"Feature","properties":{"OBJECTID":24,"NAME":"INTRACARE HOSPITAL","ADDRNO":"07601","PREFIX":" ","STNAME":"FANNIN","STTYPE":" ","SUFFIX":" ","CITY":"HOUSTON","ZIP":"77054","ADMIN":2},"geometry":{"type":"Point","coordinates":[-95.40092701860237,29.69073233598083]}},{"type":"Feature","properties":{"OBJECTID":25,"NAME":"MEDICAL CENTER HOSPITAL","ADDRNO":"08081","PREFIX":" ","STNAME":"GREENBRAIR","STTYPE":" ","SUFFIX":" ","CITY":"HOUSTON","ZIP":"77054","ADMIN":2},"geometry":{"type":"Point","coordinates":[-95.40398271178553,29.692547822144817]}},{"type":"Feature","properties":{"OBJECTID":26,"NAME":"BEN TAUB GENERAL HOSPITAL","ADDRNO":"01504","PREFIX":" ","STNAME":"TAUB LOOP","STTYPE":" ","SUFFIX":" ","CITY":"HOUSTON","ZIP":"77030","ADMIN":1},"geometry":{"type":"Point","coordinates":[-95.39435039361514,29.710984334689712]}},{"type":"Feature","properties":{"OBJECTID":27,"NAME":"PARK PLAZA HOSPITAL","ADDRNO":"01313","PREFIX":" ","STNAME":"HERMANN","STTYPE":"DR","SUFFIX":" ","CITY":"HOUSTON","ZIP":"77004","ADMIN":2},"geometry":{"type":"Point","coordinates":[-95.38755370924098,29.722687056997472]}},{"type":"Feature","properties":{"OBJECTID":28,"NAME":"MEMORIAL HERMANN HOSPITAL","ADDRNO":"06411","PREFIX":" ","STNAME":"FANNIN","STTYPE":" ","SUFFIX":" ","CITY":"HOUSTON","ZIP":"77030","ADMIN":2},"geometry":{"type":"Point","coordinates":[-95.39573012181165,29.713415171730208]}},{"type":"Feature","properties":{"OBJECTID":29,"NAME":"TIRR  / INSTITUTE FOR REHAB","ADDRNO":"01333","PREFIX":" ","STNAME":"MOURSUND","STTYPE":" ","SUFFIX":" ","CITY":"HOUSTON","ZIP":"77030","ADMIN":2},"geometry":{"type":"Point","coordinates":[-95.3941238227982,29.709368680762378]}},{"type":"Feature","properties":{"OBJECTID":30,"NAME":"SHRINERS CHILDREN HOSPITAL","ADDRNO":"06977","PREFIX":"S","STNAME":"MAIN","STTYPE":" ","SUFFIX":" ","CITY":"HOUSTON","ZIP":"77030","ADMIN":2},"geometry":{"type":"Point","coordinates":[-95.40494338616584,29.705532578824524]}},{"type":"Feature","properties":{"OBJECTID":31,"NAME":"VETERANS AFFAIRS HOSPITAL","ADDRNO":"02002","PREFIX":" ","STNAME":"HOLCOMBE","STTYPE":" ","SUFFIX":" ","CITY":"HOUSTON","ZIP":"77054","ADMIN":2},"geometry":{"type":"Point","coordinates":[-95.38981808156366,29.70145249731254]}},{"type":"Feature","properties":{"OBJECTID":32,"NAME":"HARRIS CO. PSYCHIATRIC CENTER","ADDRNO":"02800","PREFIX":"S","STNAME":"MACGREGOR","STTYPE":"WAY","SUFFIX":" ","CITY":"HOUSTON","ZIP":"77021","ADMIN":2},"geometry":{"type":"Point","coordinates":[-95.37603946249725,29.711397943940582]}},{"type":"Feature","properties":{"OBJECTID":33,"NAME":"MD ANDERSON CANCER CENTER","ADDRNO":"01515","PREFIX":" ","STNAME":"HOLCOMBE","STTYPE":" ","SUFFIX":" ","CITY":"HOUSTON","ZIP":"77030","ADMIN":2},"geometry":{"type":"Point","coordinates":[-95.39730805220677,29.707555952986485]}},{"type":"Feature","properties":{"OBJECTID":34,"NAME":"CASA A SPECIAL HOSPITAL","ADDRNO":"01803","PREFIX":" ","STNAME":"OLD SPANISH TRAIL","STTYPE":" ","SUFFIX":" ","CITY":"HOUSTON","ZIP":"77054","ADMIN":2},"geometry":{"type":"Point","coordinates":[-95.40026138161586,29.696203437925124]}},{"type":"Feature","properties":{"OBJECTID":35,"NAME":"I H S HOSPITAL","ADDRNO":"06160","PREFIX":"S","STNAME":"LOOP","STTYPE":" ","SUFFIX":"E","CITY":"HOUSTON","ZIP":"77087","ADMIN":2},"geometry":{"type":"Point","coordinates":[-95.31624347914571,29.69408296081212]}},{"type":"Feature","properties":{"OBJECTID":36,"NAME":"SPECIALTY HOSPITAL OF HOUSTON","ADDRNO":"05556","PREFIX":" ","STNAME":"GASMER","STTYPE":" ","SUFFIX":" ","CITY":"HOUSTON","ZIP":"77035","ADMIN":2},"geometry":{"type":"Point","coordinates":[-95.47746741563837,29.651952224576807]}},{"type":"Feature","properties":{"OBJECTID":37,"NAME":"NORTHEAST MEDICAL CENTER","ADDRNO":"18951","PREFIX":"N","STNAME":"MEMORIAL","STTYPE":"BLVD","SUFFIX":" ","CITY":"HUMBLE","ZIP":"77338","ADMIN":2},"geometry":{"type":"Point","coordinates":[-95.27565540925934,29.995388042499844]}},{"type":"Feature","properties":{"OBJECTID":38,"NAME":"KINGWOOD HOSPITAL","ADDRNO":"02001","PREFIX":" ","STNAME":"LADBROOK","STTYPE":"DR","SUFFIX":" ","CITY":"HOUSTON","ZIP":"77339","ADMIN":2},"geometry":{"type":"Point","coordinates":[-95.22983135175376,30.044704533117006]}},{"type":"Feature","properties":{"OBJECTID":39,"NAME":"MEDICAL CENTER HOSPITAL - BELLAIRE","ADDRNO":"05314","PREFIX":" ","STNAME":"DASHWOOD","STTYPE":" ","SUFFIX":" ","CITY":"HOUSTON","ZIP":"77081","ADMIN":2},"geometry":{"type":"Point","coordinates":[-95.4735923347658,29.70805985654196]}},{"type":"Feature","properties":{"OBJECTID":40,"NAME":"TEXAS INSTITUTE OF MENTAL SCIENCE","ADDRNO":"01300","PREFIX":" ","STNAME":"MOURSUND","STTYPE":" ","SUFFIX":" ","CITY":"HOUSTON","ZIP":"77030","ADMIN":2},"geometry":{"type":"Point","coordinates":[-95.39502059757538,29.70807217164259]}},{"type":"Feature","properties":{"OBJECTID":41,"NAME":"TEXAS ORTHOPEDIC HOSPITAL","ADDRNO":"07401","PREFIX":"S","STNAME":"MAIN","STTYPE":" ","SUFFIX":" ","CITY":"HOUSTON","ZIP":"77030","ADMIN":2},"geometry":{"type":"Point","coordinates":[-95.40900434696427,29.700487113784796]}},{"type":"Feature","properties":{"OBJECTID":42,"NAME":"CULLEN WOMENS CENTER HOSPITAL","ADDRNO":"07443","PREFIX":" ","STNAME":"CULLEN","STTYPE":" ","SUFFIX":" ","CITY":"HOUSTON","ZIP":"77051","ADMIN":2},"geometry":{"type":"Point","coordinates":[-95.35548794121803,29.67790571785684]}},{"type":"Feature","properties":{"OBJECTID":43,"NAME":"HCA N. HOUSTON MEDICAL CENTER PARKVIEW","ADDRNO":"07407","PREFIX":" ","STNAME":"NORTH FREEWAY","STTYPE":" ","SUFFIX":" ","CITY":"HOUSTON","ZIP":"77076","ADMIN":2},"geometry":{"type":"Point","coordinates":[-95.40783773101725,29.867716818155753]}},{"type":"Feature","properties":{"OBJECTID":44,"NAME":"PLAZA SPECIALTY HOSPITAL","ADDRNO":"01300","PREFIX":" ","STNAME":"BINZ ST","STTYPE":" ","SUFFIX":" ","CITY":"HOUSTON","ZIP":"77004","ADMIN":2},"geometry":{"type":"Point","coordinates":[-95.38690896197745,29.72353634397379]}},{"type":"Feature","properties":{"OBJECTID":45,"NAME":"TEXAS HEART INSTITUTE","ADDRNO":"01101","PREFIX":" ","STNAME":"BATES","STTYPE":" ","SUFFIX":" ","CITY":"HOUSTON","ZIP":"77030","ADMIN":2},"geometry":{"type":"Point","coordinates":[-95.40035828427767,29.707538515647695]}},{"type":"Feature","properties":{"OBJECTID":46,"NAME":"KINDRED HOSPITAL HOUSTON","ADDRNO":"06441","PREFIX":" ","STNAME":"MAIN","STTYPE":" ","SUFFIX":" ","CITY":"HOUSTON","ZIP":"77030","ADMIN":2},"geometry":{"type":"Point","coordinates":[-95.39910259603003,29.712969393647295]}},{"type":"Feature","properties":{"OBJECTID":47,"NAME":"HOUSTON COMMUNITY HOSPITAL - NORTHSIDE","ADDRNO":"02807","PREFIX":"W","STNAME":"LITTLE YORK","STTYPE":"RD","SUFFIX":" ","CITY":" ","ZIP":"77093","ADMIN":2},"geometry":{"type":"Point","coordinates":[-95.34187343478953,29.871835201211187]}},{"type":"Feature","properties":{"OBJECTID":48,"NAME":"CLEAR LAKE REHAB HOSPITAL","ADDRNO":"00655","PREFIX":"E","STNAME":"MEDICAL CENTER","STTYPE":"BLVD","SUFFIX":" ","CITY":" ","ZIP":"77598","ADMIN":2},"geometry":{"type":"Point","coordinates":[-95.11755514422903,29.547595712445688]}},{"type":"Feature","properties":{"OBJECTID":49,"NAME":"ST JOHN HOSPITAL","ADDRNO":"07322","PREFIX":" ","STNAME":"SOUTHWEST FREEWAY","STTYPE":" ","SUFFIX":" ","CITY":"HOUSTON","ZIP":"77074","ADMIN":2},"geometry":{"type":"Point","coordinates":[-95.5176390955514,29.702898513798125]}},{"type":"Feature","properties":{"OBJECTID":50,"NAME":"MEMORIAL HOSPITAL - SOUTHEAST","ADDRNO":"11800","PREFIX":" ","STNAME":"ASTORIA","STTYPE":"BLVD","SUFFIX":" ","CITY":"HOUSTON","ZIP":"77089","ADMIN":2},"geometry":{"type":"Point","coordinates":[-95.20699974132528,29.583431750587376]}},{"type":"Feature","properties":{"OBJECTID":51,"NAME":"HEALTHSOUTH HOSPITAL AND DIAGNOSTIC CENTER","ADDRNO":"05445","PREFIX":" ","STNAME":"LA BRANCH","STTYPE":" ","SUFFIX":" ","CITY":"HOUSTON","ZIP":"77004","ADMIN":2},"geometry":{"type":"Point","coordinates":[-95.38413848964336,29.724328246017613]}},{"type":"Feature","properties":{"OBJECTID":52,"NAME":"SCCI HOSPITAL","ADDRNO":"00105","PREFIX":" ","STNAME":"DREW ST","STTYPE":" ","SUFFIX":" ","CITY":"HOUSTON","ZIP":"77006","ADMIN":2},"geometry":{"type":"Point","coordinates":[-95.38251435005229,29.748799001417524]}},{"type":"Feature","properties":{"OBJECTID":53,"NAME":"HCA DEER PARK HOSPITAL","ADDRNO":"04525","PREFIX":" ","STNAME":"GLENWOOD","STTYPE":" ","SUFFIX":" ","CITY":"DEER PARK","ZIP":"77536","ADMIN":2},"geometry":{"type":"Point","coordinates":[-95.13026655342334,29.668198616289043]}},{"type":"Feature","properties":{"OBJECTID":54,"NAME":"WEST HOUSTON SURGICARE","ADDRNO":"00970","PREFIX":" ","STNAME":"CAMPBELL","STTYPE":" ","SUFFIX":" ","CITY":"HEDWIG VILLAGE","ZIP":"77024","ADMIN":2},"geometry":{"type":"Point","coordinates":[-95.51344335290334,29.782809601626898]}},{"type":"Feature","properties":{"OBJECTID":55,"NAME":"KINDRED HOSPITAL HOUSTON NORTHWEST","ADDRNO":"11297","PREFIX":" ","STNAME":"FALLBROOK","STTYPE":" ","SUFFIX":" ","CITY":" ","ZIP":"77065","ADMIN":2},"geometry":{"type":"Point","coordinates":[-95.58812843893011,29.924295267434243]}},{"type":"Feature","properties":{"OBJECTID":56,"NAME":"TRI CITY REGIONAL HOSPITAL","ADDRNO":"04040","PREFIX":" ","STNAME":"RED BUFF","STTYPE":" ","SUFFIX":" ","CITY":"PASADENA","ZIP":"77503","ADMIN":2},"geometry":{"type":"Point","coordinates":[-95.14933107703375,29.67898453909771]}},{"type":"Feature","properties":{"OBJECTID":57,"NAME":"TRIUMPH HOSPITAL BAYTOWN","ADDRNO":"01700","PREFIX":" ","STNAME":"JAMES BOWIE DR","STTYPE":" ","SUFFIX":" ","CITY":" ","ZIP":"77520","ADMIN":2},"geometry":{"type":"Point","coordinates":[-94.94407130327198,29.74861409183806]}},{"type":"Feature","properties":{"OBJECTID":58,"NAME":"BAYSHORE MEDICAL CENTER","ADDRNO":"04000","PREFIX":" ","STNAME":"SPENCER HIGHWAY","STTYPE":" ","SUFFIX":" ","CITY":"PASADENA","ZIP":"77504","ADMIN":2},"geometry":{"type":"Point","coordinates":[-95.18313973324301,29.66270644992828]}},{"type":"Feature","properties":{"OBJECTID":59,"NAME":"CHAMPIONS PSYCHIATRIC CENTER","ADDRNO":"14320","PREFIX":" ","STNAME":"WALTERS","STTYPE":"RD","SUFFIX":" ","CITY":" ","ZIP":"77014","ADMIN":2},"geometry":{"type":"Point","coordinates":[-95.47909925385112,29.99282890114572]}},{"type":"Feature","properties":{"OBJECTID":60,"NAME":"CLEAR LAKE REGIONAL MEDICAL CENTER","ADDRNO":"00500","PREFIX":" ","STNAME":"MEDICAL CENTER","STTYPE":"BLVD","SUFFIX":" ","CITY":"WEBSTER","ZIP":"77598","ADMIN":2},"geometry":{"type":"Point","coordinates":[-95.12768857337187,29.541206131601925]}},{"type":"Feature","properties":{"OBJECTID":61,"NAME":"CY-FAIR MEDICAL CENTER HOSPITAL","ADDRNO":"10655","PREFIX":" ","STNAME":"STEEPLETOP","STTYPE":"DR","SUFFIX":" ","CITY":" ","ZIP":"77065","ADMIN":2},"geometry":{"type":"Point","coordinates":[-95.58975773857485,29.927225396792085]}},{"type":"Feature","properties":{"OBJECTID":62,"NAME":"CYPRESS CREEK HOSPITAL","ADDRNO":"17750","PREFIX":" ","STNAME":"CALI","STTYPE":"DR","SUFFIX":" ","CITY":"HOUSTON","ZIP":"77090","ADMIN":2},"geometry":{"type":"Point","coordinates":[-95.44529034263735,30.02457043663803]}},{"type":"Feature","properties":{"OBJECTID":63,"NAME":"DEPELCHIN CHILDRENS HOSPITAL","ADDRNO":"03214","PREFIX":" ","STNAME":"AUSTIN","STTYPE":" ","SUFFIX":" ","CITY":"HOUSTON","ZIP":"77004","ADMIN":2},"geometry":{"type":"Point","coordinates":[-95.37430784947931,29.73925398737101]}},{"type":"Feature","properties":{"OBJECTID":64,"NAME":"DEATON HOSPITAL","ADDRNO":"00206","PREFIX":"N","STNAME":"MAIN","STTYPE":" ","SUFFIX":" ","CITY":"GALENA PARK","ZIP":"77547","ADMIN":2},"geometry":{"type":"Point","coordinates":[-95.24048345802952,29.733703844759845]}},{"type":"Feature","properties":{"OBJECTID":65,"NAME":"FOREST SPRING HOSPITAL","ADDRNO":"01120","PREFIX":" ","STNAME":"CYPRESS STATION","STTYPE":"DR","SUFFIX":" ","CITY":"HOUSTON","ZIP":"77090","ADMIN":2},"geometry":{"type":"Point","coordinates":[-95.44017818011181,30.023811507418284]}},{"type":"Feature","properties":{"OBJECTID":66,"NAME":"FOUNTAIN BROOK HOSPITAL","ADDRNO":"11919","PREFIX":"W","STNAME":"AIRPORT","STTYPE":"BLVD","SUFFIX":" ","CITY":"SUGAR LAND","ZIP":"77477","ADMIN":2},"geometry":{"type":"Point","coordinates":[-95.5875729415516,29.646855288865616]}},{"type":"Feature","properties":{"OBJECTID":67,"NAME":"GREENPARK II MEDICAL CENTER","ADDRNO":"07515","PREFIX":" ","STNAME":"MAIN","STTYPE":"ST","SUFFIX":" ","CITY":"HOUSTON","ZIP":"77030","ADMIN":2},"geometry":{"type":"Point","coordinates":[-95.41028388227585,29.69856407559709]}},{"type":"Feature","properties":{"OBJECTID":68,"NAME":"GULF COAST HOSPITAL","ADDRNO":"02800","PREFIX":" ","STNAME":"GARTH","STTYPE":"RD","SUFFIX":" ","CITY":" ","ZIP":"77521","ADMIN":2},"geometry":{"type":"Point","coordinates":[-94.97842343517539,29.751386414105347]}},{"type":"Feature","properties":{"OBJECTID":69,"NAME":"HEALTH SOUTH REHALIBITATION INSTITUTE","ADDRNO":"17506","PREFIX":" ","STNAME":"RED OAK","STTYPE":"DR","SUFFIX":" ","CITY":" ","ZIP":"77090","ADMIN":2},"geometry":{"type":"Point","coordinates":[-95.44991037317688,30.02698948917556]}},{"type":"Feature","properties":{"OBJECTID":70,"NAME":"HEALTH SOUTH REHABILITATION HOSPITAL OF HUMBLE","ADDRNO":"19002","PREFIX":" ","STNAME":"MC KAY","STTYPE":"DR","SUFFIX":" ","CITY":"HUMBLE","ZIP":"77338","ADMIN":2},"geometry":{"type":"Point","coordinates":[-95.27750362532993,29.99328922393727]}},{"type":"Feature","properties":{"OBJECTID":71,"NAME":"HOUSTON NW MEDICAL CENTER","ADDRNO":"00710","PREFIX":" ","STNAME":"FM 1960 WEST","STTYPE":" ","SUFFIX":" ","CITY":"HOUSTON","ZIP":"77090","ADMIN":2},"geometry":{"type":"Point","coordinates":[-95.44250618877116,30.020716138702376]}},{"type":"Feature","properties":{"OBJECTID":72,"NAME":"KINGWOOD URGING CARE","ADDRNO":"02313","PREFIX":" ","STNAME":"TIMBER SHADOWS","STTYPE":"DR","SUFFIX":" ","CITY":"HOUSTON","ZIP":"77339","ADMIN":2},"geometry":{"type":"Point","coordinates":[-95.23122582886803,30.05073706891381]}},{"type":"Feature","properties":{"OBJECTID":73,"NAME":"MEMORIAL HERMANN - FORT BEND HOSPITAL","ADDRNO":"03803","PREFIX":" ","STNAME":"FM 1092","STTYPE":" ","SUFFIX":" ","CITY":"MISSOURI CITY","ZIP":"77459","ADMIN":2},"geometry":{"type":"Point","coordinates":[-95.56230385819299,29.565003661158872]}},{"type":"Feature","properties":{"OBJECTID":74,"NAME":"MEMORIAL HERMANN - KATY HOSPITAL","ADDRNO":"05602","PREFIX":" ","STNAME":"MEDICAL CENTER","STTYPE":" ","SUFFIX":" ","CITY":"KATY","ZIP":"77494","ADMIN":2},"geometry":{"type":"Point","coordinates":[-95.8190332211525,29.77025147533199]}},{"type":"Feature","properties":{"OBJECTID":75,"NAME":"MEMORIAL HERMANN - PASADENA","ADDRNO":"00906","PREFIX":"E","STNAME":"SOUTHMORE","STTYPE":" ","SUFFIX":" ","CITY":"PASADENA","ZIP":"77502","ADMIN":2},"geometry":{"type":"Point","coordinates":[-95.2020876972809,29.689812622161238]}},{"type":"Feature","properties":{"OBJECTID":76,"NAME":"METHODIST HOSPITAL","ADDRNO":"01130","PREFIX":" ","STNAME":"EARLE","STTYPE":" ","SUFFIX":" ","CITY":"HOUSTON","ZIP":"77030","ADMIN":2},"geometry":{"type":"Point","coordinates":[-95.40010601648983,29.697303012267373]}},{"type":"Feature","properties":{"OBJECTID":77,"NAME":"METHODIST WILLOWBROOK HOSPITAL","ADDRNO":"18220","PREFIX":" ","STNAME":"TOMBALL","STTYPE":"PKWY","SUFFIX":" ","CITY":"HOUSTON","ZIP":"77070","ADMIN":2},"geometry":{"type":"Point","coordinates":[-95.55132761222833,29.96577124675087]}},{"type":"Feature","properties":{"OBJECTID":78,"NAME":"SAN JACINTO METHODIST HOSPITAL","ADDRNO":"04401","PREFIX":" ","STNAME":"GARTH","STTYPE":"RD","SUFFIX":" ","CITY":" ","ZIP":"77521","ADMIN":2},"geometry":{"type":"Point","coordinates":[-94.9788393466456,29.768909467386553]}},{"type":"Feature","properties":{"OBJECTID":79,"NAME":"BAYWOOD HOSPITAL","ADDRNO":"00709","PREFIX":" ","STNAME":"MEDICAL CENTER","STTYPE":"BLVD","SUFFIX":" ","CITY":"WEBSTER","ZIP":"77598","ADMIN":2},"geometry":{"type":"Point","coordinates":[-95.12950375278942,29.53732927403853]}},{"type":"Feature","properties":{"OBJECTID":80,"NAME":"SUGAR LAND MEDICAL CENTER","ADDRNO":"15300","PREFIX":" ","STNAME":"SOUTHWEST FREEWAY","STTYPE":" ","SUFFIX":" ","CITY":"SUGAR LAND","ZIP":"77478","ADMIN":2},"geometry":{"type":"Point","coordinates":[-95.61590259334034,29.606344777776002]}},{"type":"Feature","properties":{"OBJECTID":81,"NAME":"SURGICAL OUTPATIENT HOSPITAL","ADDRNO":"03534","PREFIX":" ","STNAME":"VISTA","STTYPE":"RD","SUFFIX":" ","CITY":"PASADENA","ZIP":"77504","ADMIN":2},"geometry":{"type":"Point","coordinates":[-95.18892057200905,29.65813343978711]}},{"type":"Feature","properties":{"OBJECTID":82,"NAME":"TEXAS MEDICAL CENTER","ADDRNO":"06519","PREFIX":" ","STNAME":"FANNIN","STTYPE":" ","SUFFIX":" ","CITY":"HOUSTON","ZIP":"77030","ADMIN":2},"geometry":{"type":"Point","coordinates":[-95.39847959520357,29.7111548095308]}},{"type":"Feature","properties":{"OBJECTID":83,"NAME":"TOMBALL REGIONAL HOSPITAL","ADDRNO":"00605","PREFIX":" ","STNAME":"HOLDERRIETH","STTYPE":" ","SUFFIX":" ","CITY":"TOMBALL","ZIP":"77375","ADMIN":2},"geometry":{"type":"Point","coordinates":[-95.62328658668659,30.08726864454577]}},{"type":"Feature","properties":{"OBJECTID":84,"NAME":"TEXAS SPORTS MEDICAL CENTER","ADDRNO":"00611","PREFIX":" ","STNAME":"HOLDERRIETH","STTYPE":" ","SUFFIX":" ","CITY":"TOMBALL","ZIP":"77375","ADMIN":2},"geometry":{"type":"Point","coordinates":[-95.62475286703844,30.085713433238475]}},{"type":"Feature","properties":{"OBJECTID":85,"NAME":"HEALTH BRIDGE CHILDREN'S HOSPITAL","ADDRNO":"02929","PREFIX":" ","STNAME":"WOODLAND PARK","STTYPE":" ","SUFFIX":" ","CITY":"HOUSTON","ZIP":"77082","ADMIN":2},"geometry":{"type":"Point","coordinates":[-95.57997737050614,29.732434804015263]}},{"type":"Feature","properties":{"OBJECTID":86,"NAME":"HEALTHSOUTH NORTHEAST SURGERY CENTER","ADDRNO":"18929","PREFIX":" ","STNAME":"EASTEX FREEWAY","STTYPE":" ","SUFFIX":" ","CITY":"HUMBLE","ZIP":"77338","ADMIN":2},"geometry":{"type":"Point","coordinates":[-95.27417164993449,29.99252750396823]}},{"type":"Feature","properties":{"OBJECTID":87,"NAME":"AMERICAN TRANSITIONAL HOSPITAL","ADDRNO":"6447","PREFIX":" ","STNAME":"MAIN","STTYPE":"ST","SUFFIX":" ","CITY":"HOUSTON","ZIP":"77030","ADMIN":2},"geometry":{"type":"Point","coordinates":[-95.3992154355128,29.712469596958524]}},{"type":"Feature","properties":{"OBJECTID":88,"NAME":"BAYSHORE SURGERY CENTER","ADDRNO":"3333","PREFIX":" ","STNAME":"BAYSHORE","STTYPE":"BLVD","SUFFIX":" ","CITY":"PASADENA","ZIP":"77504","ADMIN":2},"geometry":{"type":"Point","coordinates":[-95.18386840145605,29.661100634106397]}},{"type":"Feature","properties":{"OBJECTID":89,"NAME":"BRILELA McCREA WOMAN'S PLACE","ADDRNO":"12605","PREFIX":" ","STNAME":"EAST FREEWAY","STTYPE":" ","SUFFIX":" ","CITY":"HOUSTON","ZIP":"77015","ADMIN":2},"geometry":{"type":"Point","coordinates":[-95.2129181308488,29.771532665774576]}},{"type":"Feature","properties":{"OBJECTID":90,"NAME":"CHRISTUS ST. CATHERINE","ADDRNO":"777","PREFIX":"S","STNAME":"FRY","STTYPE":"RD","SUFFIX":" ","CITY":"HOUSTON","ZIP":"77094","ADMIN":2},"geometry":{"type":"Point","coordinates":[-95.71793009194496,29.775735902748462]}},{"type":"Feature","properties":{"OBJECTID":91,"NAME":"KINGWOOD MEDICAL CENTER","ADDRNO":"22999","PREFIX":" ","STNAME":"US HIGHWAY 59","STTYPE":" ","SUFFIX":"N","CITY":"HOUSTON","ZIP":"77339","ADMIN":2},"geometry":{"type":"Point","coordinates":[-95.25489029360057,30.051042803026274]}},{"type":"Feature","properties":{"OBJECTID":92,"NAME":"DUBUIS HOSPITAL FOR CONTINUING CARE","ADDRNO":"1919","PREFIX":" ","STNAME":"LA BRANCH","STTYPE":" ","SUFFIX":" ","CITY":"HOUSTON","ZIP":"77002","ADMIN":2},"geometry":{"type":"Point","coordinates":[-95.36585126141343,29.7471689238637]}},{"type":"Feature","properties":{"OBJECTID":93,"NAME":"SELECT SPECIALTY HOSPITAL HOUSTON MEDICAL CENTER","ADDRNO":"6447","PREFIX":" ","STNAME":"MAIN","STTYPE":"ST","SUFFIX":" ","CITY":"HOUSTON","ZIP":"77030","ADMIN":2},"geometry":{"type":"Point","coordinates":[-95.39978512276186,29.712350169362832]}},{"type":"Feature","properties":{"OBJECTID":94,"NAME":"MEMORIAL HERMANN CHILDREN'S HOSPITAL","ADDRNO":"6411","PREFIX":" ","STNAME":"FANNIN","STTYPE":" ","SUFFIX":" ","CITY":"HOUSTON","ZIP":"77030","ADMIN":2},"geometry":{"type":"Point","coordinates":[-95.39493351488946,29.713357631284286]}},{"type":"Feature","properties":{"OBJECTID":95,"NAME":"THE BREAST CENTER","ADDRNO":"710","PREFIX":" ","STNAME":"F M 1960","STTYPE":" ","SUFFIX":"W","CITY":"HOSTON","ZIP":"77090","ADMIN":2},"geometry":{"type":"Point","coordinates":[-95.44292064471773,30.021030855198767]}},{"type":"Feature","properties":{"OBJECTID":96,"NAME":"KINDRED BAY AREA HOSPITAL","ADDRNO":"1004","PREFIX":" ","STNAME":"SEYMOUR","STTYPE":"DR","SUFFIX":" ","CITY":"PASADENA","ZIP":"77506","ADMIN":2},"geometry":{"type":"Point","coordinates":[-95.2003647736809,29.703192924940076]}},{"type":"Feature","properties":{"OBJECTID":97,"NAME":"MEMORIAL HERMANN WOODLAND HOSPITAL","ADDRNO":"9520","PREFIX":" ","STNAME":"PINECROFT","STTYPE":"DR","SUFFIX":" ","CITY":"SHENANDOAH","ZIP":"Numbe","ADMIN":2},"geometry":{"type":"Point","coordinates":[-95.45456500578422,30.17424665998123]}},{"type":"Feature","properties":{"OBJECTID":98,"NAME":"METHODIST SUGAR LAND HOSPITAL","ADDRNO":"16655","PREFIX":" ","STNAME":"SOUTHWEST FREEWAY","STTYPE":" ","SUFFIX":" ","CITY":" ","ZIP":"77479","ADMIN":2},"geometry":{"type":"Point","coordinates":[-95.6317461568598,29.588555524847923]}},{"type":"Feature","properties":{"OBJECTID":99,"NAME":"TRIUMPH HOSPITAL EAST HOUSTON","ADDRNO":"15101","PREFIX":" ","STNAME":"EAST FREEWAY","STTYPE":" ","SUFFIX":" ","CITY":" ","ZIP":"77530","ADMIN":2},"geometry":{"type":"Point","coordinates":[-95.14500657712973,29.77443148739432]}},{"type":"Feature","properties":{"OBJECTID":100,"NAME":"TRIUMPH HOSPITAL NORTHWEST HOUSTON","ADDRNO":"205","PREFIX":" ","STNAME":"HOLLOW TREE","STTYPE":"LN","SUFFIX":" ","CITY":"HOUSTON","ZIP":"77090","ADMIN":2},"geometry":{"type":"Point","coordinates":[-95.43663006349483,30.025767026102603]}},{"type":"Feature","properties":{"OBJECTID":101,"NAME":"TRIUMPH HOSPITAL SOUTHWEST HOUSTON","ADDRNO":"1550","PREFIX":" ","STNAME":"FIRST COLONY","STTYPE":" ","SUFFIX":" ","CITY":" ","ZIP":"77479","ADMIN":2},"geometry":{"type":"Point","coordinates":[-95.63859862841204,29.600310908368453]}},{"type":"Feature","properties":{"OBJECTID":102,"NAME":"HCA WOMAN'S HOSPITAL OF TEXAS","ADDRNO":"7600","PREFIX":" ","STNAME":"FANNIN","STTYPE":" ","SUFFIX":" ","CITY":"HOUSTON","ZIP":"77054","ADMIN":2},"geometry":{"type":"Point","coordinates":[-95.40232345876964,29.693082106888745]}},{"type":"Feature","properties":{"OBJECTID":103,"NAME":"POLLY RYON MEMORIAL HOSPITAL","ADDRNO":"1705","PREFIX":" ","STNAME":"JACKSON","STTYPE":" ","SUFFIX":" ","CITY":" ","ZIP":"77469","ADMIN":2},"geometry":{"type":"Point","coordinates":[-95.77055650792374,29.57817067613347]}},{"type":"Feature","properties":{"OBJECTID":104,"NAME":"VISTA MEDICAL CENTER","ADDRNO":"4301","PREFIX":" ","STNAME":"VISTA","STTYPE":" ","SUFFIX":" ","CITY":"PASADENA","ZIP":"77504","ADMIN":2},"geometry":{"type":"Point","coordinates":[-95.17755725291235,29.659483317638184]}},{"type":"Feature","properties":{"OBJECTID":105,"NAME":"BEACON HEALTH CHILDREN'S HOSPITAL","ADDRNO":"9182","PREFIX":" ","STNAME":"SIX PINES","STTYPE":" ","SUFFIX":" ","CITY":" ","ZIP":"77380","ADMIN":2},"geometry":{"type":"Point","coordinates":[-95.46015637682063,30.17322961557211]}},{"type":"Feature","properties":{"OBJECTID":106,"NAME":"CHRISTUS ST. JOHN HOSPITAL","ADDRNO":"18300","PREFIX":" ","STNAME":"ST JOHN","STTYPE":"DR","SUFFIX":" ","CITY":"NASSAU BAY","ZIP":"77058","ADMIN":2},"geometry":{"type":"Point","coordinates":[-95.08711079680015,29.549374413620697]}},{"type":"Feature","properties":{"OBJECTID":107,"NAME":"SAN JACINTO METHODIST HOSPITAL","ADDRNO":"1101","PREFIX":" ","STNAME":"DECKER","STTYPE":"DR","SUFFIX":" ","CITY":" ","ZIP":"77520","ADMIN":2},"geometry":{"type":"Point","coordinates":[-94.97969333721932,29.73756701505878]}},{"type":"Feature","properties":{"OBJECTID":108,"NAME":"HOUSTON DAY HOSPITAL","ADDRNO":"4665","PREFIX":" ","STNAME":"SOUTHWEST FRWY","STTYPE":" ","SUFFIX":" ","CITY":"HOUSTON","ZIP":"77027","ADMIN":2},"geometry":{"type":"Point","coordinates":[-95.45489541441268,29.7293137552794]}}]}