{"type":"FeatureCollection","features":[{"type":"Feature","properties":{"OBJECTID":1,"ADDRESS":"5830 Westheimer Rd","LIBRARY":"Jungman Library","Join_Count":1,"TARGET_FID":1,"InList":"Yes","Shape_Leng":185812.32741,"Label":"Jungman ","Code":"JUN","Check_":"Ok","DISTRICT":"G","MEMBER":"GREG TRAVIS","PHONE":"832-393-3007","YEAR":2016},"geometry":{"type":"Point","coordinates":[-95.48141334843002,29.73838848326846]}},{"type":"Feature","properties":{"OBJECTID":2,"ADDRESS":"8815 Feland St","LIBRARY":"Lakewood Library","Join_Count":1,"TARGET_FID":2,"InList":"Yes","Shape_Leng":1698829.19982,"Label":"Lakewood ","Code":"LAK","Check_":"Ok","DISTRICT":"B","MEMBER":"JERRY DAVIS","PHONE":"832-393-3009","YEAR":2016},"geometry":{"type":"Point","coordinates":[-95.26779956137632,29.840608631605082]}},{"type":"Feature","properties":{"OBJECTID":3,"ADDRESS":"6767 Bellfort St","LIBRARY":"Mancuso Library","Join_Count":1,"TARGET_FID":3,"InList":"Yes","Shape_Leng":389474.390662,"Label":"Mancuso ","Code":"MAN","Check_":"Ok","DISTRICT":"I","MEMBER":"ROBERT GALLEGOS","PHONE":"832-393-3011","YEAR":2016},"geometry":{"type":"Point","coordinates":[-95.31035209253668,29.66819678481591]}},{"type":"Feature","properties":{"OBJECTID":4,"ADDRESS":"5411 Pardee St","LIBRARY":"Mc Crane-Kashmere Gardens Library","Join_Count":1,"TARGET_FID":4,"InList":"Yes","Shape_Leng":1698829.19982,"Label":"McCrane-Kashmere Gardens","Code":"KAS","Check_":"Ok","DISTRICT":"B","MEMBER":"JERRY DAVIS","PHONE":"832-393-3009","YEAR":2016},"geometry":{"type":"Point","coordinates":[-95.31642809518729,29.806211564490468]}},{"type":"Feature","properties":{"OBJECTID":5,"ADDRESS":"9525 Irvington Blvd","LIBRARY":"Moody Library","Join_Count":1,"TARGET_FID":5,"InList":"Yes","Shape_Leng":339371.266063,"Label":"Moody","Code":"MOO","Check_":"Ok","DISTRICT":"H","MEMBER":"KARLA CISNEROS","PHONE":"832-393-3003","YEAR":2016},"geometry":{"type":"Point","coordinates":[-95.36298551191726,29.847453839412264]}},{"type":"Feature","properties":{"OBJECTID":6,"ADDRESS":"7007 W. Fuqua","LIBRARY":"Stimley - Blue Ridge Library","Join_Count":1,"TARGET_FID":6,"InList":"Yes","Shape_Leng":264709.503565,"Label":"Stimley - Blue Ridge","Code":"BLU","Check_":"Ok","DISTRICT":"K","MEMBER":"LARRY GREEN","PHONE":"832-393-3016","YEAR":2016},"geometry":{"type":"Point","coordinates":[-95.4911228466844,29.598402354999852]}},{"type":"Feature","properties":{"OBJECTID":7,"ADDRESS":"500 McKinney","LIBRARY":"Central Library","Join_Count":1,"TARGET_FID":7,"InList":"Yes","Shape_Leng":389474.390662,"Label":"Central","Code":"CEN","Check_":"Ok","DISTRICT":"I","MEMBER":"ROBERT GALLEGOS","PHONE":"832-393-3011","YEAR":2016},"geometry":{"type":"Point","coordinates":[-95.36996028354949,29.759436747791344]}},{"type":"Feature","properties":{"OBJECTID":8,"ADDRESS":"5300 Caroline","LIBRARY":"Clayton Library","Join_Count":1,"TARGET_FID":8,"InList":"Yes","Shape_Leng":368879.351774,"Label":"Clayton","Code":"CLA","Check_":"Ok","DISTRICT":"D","MEMBER":"DWIGHT BOYKINS","PHONE":"832-393-3001","YEAR":2016},"geometry":{"type":"Point","coordinates":[-95.38608074811779,29.726223551024074]}},{"type":"Feature","properties":{"OBJECTID":9,"ADDRESS":"1500 Binz","LIBRARY":"Parent Resource Library","Join_Count":1,"TARGET_FID":9,"InList":"Yes","Shape_Leng":368879.351774,"Label":"Parent Resource Center","Code":"CMH","Check_":"Ok","DISTRICT":"D","MEMBER":"DWIGHT BOYKINS","PHONE":"832-393-3001","YEAR":2016},"geometry":{"type":"Point","coordinates":[-95.38521971666528,29.722602823480177]}},{"type":"Feature","properties":{"OBJECTID":10,"ADDRESS":"8145 Park Place","LIBRARY":"Park Place Regional","Join_Count":1,"TARGET_FID":10,"InList":"Yes","Shape_Leng":389474.390662,"Label":"Park Place","Code":"PAR","Check_":"Ok","DISTRICT":"I","MEMBER":"ROBERT GALLEGOS","PHONE":"832-393-3011","YEAR":2016},"geometry":{"type":"Point","coordinates":[-95.27511692973114,29.68780985985475]}},{"type":"Feature","properties":{"OBJECTID":11,"ADDRESS":"7405 Stella Link","LIBRARY":"McGovern - Stella Link Library","Join_Count":1,"TARGET_FID":11,"InList":"Yes","Shape_Leng":318703.617055,"Label":"McGovern-Stella Link","Code":"STE","Check_":"Ok","DISTRICT":"C","MEMBER":"ELLEN R COHEN","PHONE":"832-393-3004","YEAR":2016},"geometry":{"type":"Point","coordinates":[-95.43967707785718,29.698070237939618]}},{"type":"Feature","properties":{"OBJECTID":12,"ADDRESS":"8501 W Montgomery Rd","LIBRARY":"Acres Homes Library","Join_Count":1,"TARGET_FID":12,"InList":"Yes","Shape_Leng":1698829.19982,"Label":"Shepard-Acres Homes","Code":"ACR","Check_":"Ok","DISTRICT":"B","MEMBER":"JERRY DAVIS","PHONE":"832-393-3009","YEAR":2016},"geometry":{"type":"Point","coordinates":[-95.43726034880355,29.871017873873626]}},{"type":"Feature","properties":{"OBJECTID":13,"ADDRESS":"1050 Quitman St","LIBRARY":"Carnegie Library","Join_Count":1,"TARGET_FID":13,"InList":"Yes","Shape_Leng":339371.266063,"Label":"Carnegie","Code":"CAR","Check_":"Ok","DISTRICT":"H","MEMBER":"KARLA CISNEROS","PHONE":"832-393-3003","YEAR":2016},"geometry":{"type":"Point","coordinates":[-95.35866808029607,29.782091092036254]}},{"type":"Feature","properties":{"OBJECTID":14,"ADDRESS":"8002 Hirsch Rd","LIBRARY":"Dixon Library","Join_Count":1,"TARGET_FID":14,"InList":"Yes","Shape_Leng":1698829.19982,"Label":"Dixon","Code":"DIX","Check_":"Ok","DISTRICT":"B","MEMBER":"JERRY DAVIS","PHONE":"832-393-3009","YEAR":2016},"geometry":{"type":"Point","coordinates":[-95.32862535087864,29.83345378972217]}},{"type":"Feature","properties":{"OBJECTID":15,"ADDRESS":"4014 Market St","LIBRARY":"Fifth Ward Library","Join_Count":1,"TARGET_FID":15,"InList":"Yes","Shape_Leng":1698829.19982,"Label":"Fifth Ward","Code":"FIF","Check_":"Ok","DISTRICT":"B","MEMBER":"JERRY DAVIS","PHONE":"832-393-3009","YEAR":2016},"geometry":{"type":"Point","coordinates":[-95.3305080837574,29.772204185468347]}},{"type":"Feature","properties":{"OBJECTID":16,"ADDRESS":"110 N Milby St","LIBRARY":"Flores Library","Join_Count":1,"TARGET_FID":16,"InList":"Yes","Shape_Leng":339371.266063,"Label":"Flores","Code":"FLO","Check_":"Ok","DISTRICT":"H","MEMBER":"KARLA CISNEROS","PHONE":"832-393-3003","YEAR":2016},"geometry":{"type":"Point","coordinates":[-95.33488501000706,29.750364366947803]}},{"type":"Feature","properties":{"OBJECTID":17,"ADDRESS":"4100 Montrose Blvd","LIBRARY":"Freed-Montrose Library","Join_Count":1,"TARGET_FID":17,"InList":"Yes","Shape_Leng":318703.617055,"Label":"Freed-Montrose ","Code":"MNT","Check_":"Ok","DISTRICT":"C","MEMBER":"ELLEN R COHEN","PHONE":"832-393-3004","YEAR":2016},"geometry":{"type":"Point","coordinates":[-95.39154783250302,29.735480736368487]}},{"type":"Feature","properties":{"OBJECTID":18,"ADDRESS":"1302 Heights Blvd","LIBRARY":"Heights Library","Join_Count":1,"TARGET_FID":18,"InList":"Yes","Shape_Leng":318703.617055,"Label":"Heights","Code":"HEI","Check_":"Ok","DISTRICT":"C","MEMBER":"ELLEN R COHEN","PHONE":"832-393-3004","YEAR":2016},"geometry":{"type":"Point","coordinates":[-95.3972870663655,29.794713384420884]}},{"type":"Feature","properties":{"OBJECTID":19,"ADDRESS":"7979 S Kirkwood Rd","LIBRARY":"Henington-Alief Library","Join_Count":1,"TARGET_FID":19,"InList":"Yes","Shape_Leng":969347.771061,"Label":"Henington-Alief","Code":"ALI","Check_":"Ok","DISTRICT":"F","MEMBER":"STEVE LE","PHONE":"832-393-3002","YEAR":2016},"geometry":{"type":"Point","coordinates":[-95.5870191918067,29.692242866460123]}},{"type":"Feature","properties":{"OBJECTID":20,"ADDRESS":"2436 Gessner Dr","LIBRARY":"Hillendahl Library","Join_Count":1,"TARGET_FID":20,"InList":"Yes","Shape_Leng":3101060.08339,"Label":"Hillendahl ","Code":"HIL","Check_":"Ok","DISTRICT":"A","MEMBER":"BRENDA STARDIG","PHONE":"832-393-3010","YEAR":2016},"geometry":{"type":"Point","coordinates":[-95.54457734380777,29.815638824904592]}},{"type":"Feature","properties":{"OBJECTID":21,"ADDRESS":"7200 Keller St","LIBRARY":"Melcher Library","Join_Count":1,"TARGET_FID":21,"InList":"Yes","Shape_Leng":389474.390662,"Label":"Melcher","Code":"MEL","Check_":"Ok","DISTRICT":"I","MEMBER":"ROBERT GALLEGOS","PHONE":"832-393-3011","YEAR":2016},"geometry":{"type":"Point","coordinates":[-95.28958914224062,29.706190912245493]}},{"type":"Feature","properties":{"OBJECTID":22,"ADDRESS":"5005 W Bellfort St","LIBRARY":"Meyer Library","Join_Count":1,"TARGET_FID":22,"InList":"Yes","Shape_Leng":264709.503565,"Label":"Meyer","Code":"MEY","Check_":"Ok","DISTRICT":"K","MEMBER":"LARRY GREEN","PHONE":"832-393-3016","YEAR":2016},"geometry":{"type":"Point","coordinates":[-95.46600603950125,29.668063640198888]}},{"type":"Feature","properties":{"OBJECTID":23,"ADDRESS":"6200 Pinemont Dr","LIBRARY":"Collier Regional Library","Join_Count":1,"TARGET_FID":23,"InList":"Yes","Shape_Leng":318703.617055,"Label":"Collier","Code":"COL","Check_":"Ok","DISTRICT":"C","MEMBER":"ELLEN R COHEN","PHONE":"832-393-3004","YEAR":2016},"geometry":{"type":"Point","coordinates":[-95.48273661294526,29.84081912799147]}},{"type":"Feature","properties":{"OBJECTID":24,"ADDRESS":"3517 Reed Rd","LIBRARY":"Johnson Library","Join_Count":1,"TARGET_FID":24,"InList":"Yes","Shape_Leng":368879.351774,"Label":"Johnson","Code":"JOH","Check_":"Ok","DISTRICT":"D","MEMBER":"DWIGHT BOYKINS","PHONE":"832-393-3001","YEAR":2016},"geometry":{"type":"Point","coordinates":[-95.37133651461558,29.658645690071303]}},{"type":"Feature","properties":{"OBJECTID":25,"ADDRESS":"1349 W 43rd St","LIBRARY":"Oak Forest Library","Join_Count":1,"TARGET_FID":25,"InList":"Yes","Shape_Leng":318703.617055,"Label":"Oak Forest","Code":"OAK","Check_":"Ok","DISTRICT":"C","MEMBER":"ELLEN R COHEN","PHONE":"832-393-3004","YEAR":2016},"geometry":{"type":"Point","coordinates":[-95.43385233478027,29.827602620999006]}},{"type":"Feature","properties":{"OBJECTID":26,"ADDRESS":"1520 Gellhorn Dr","LIBRARY":"Pleasantville Library","Join_Count":1,"TARGET_FID":26,"InList":"Yes","Shape_Leng":1698829.19982,"Label":"Pleasantville","Code":"PLE","Check_":"Ok","DISTRICT":"B","MEMBER":"JERRY DAVIS","PHONE":"832-393-3009","YEAR":2016},"geometry":{"type":"Point","coordinates":[-95.27304303252342,29.76386458026864]}},{"type":"Feature","properties":{"OBJECTID":27,"ADDRESS":"8835 Long Point Rd","LIBRARY":"Ring Library","Join_Count":1,"TARGET_FID":27,"InList":"Yes","Shape_Leng":3101060.08339,"Label":"Ring","Code":"RIN","Check_":"Ok","DISTRICT":"A","MEMBER":"BRENDA STARDIG","PHONE":"832-393-3010","YEAR":2016},"geometry":{"type":"Point","coordinates":[-95.50794644108208,29.802660928767505]}},{"type":"Feature","properties":{"OBJECTID":28,"ADDRESS":"3223 Wilcrest Dr","LIBRARY":"Robinson Westchase Library","Join_Count":1,"TARGET_FID":28,"InList":"Yes","Shape_Leng":969347.771061,"Label":"Robinson Westchase","Code":"ROB","Check_":"Ok","DISTRICT":"F","MEMBER":"STEVE LE","PHONE":"832-393-3002","YEAR":2016},"geometry":{"type":"Point","coordinates":[-95.57085124515423,29.728948118756318]}},{"type":"Feature","properties":{"OBJECTID":29,"ADDRESS":"10677 Homestead Rd","LIBRARY":"Scenic Woods Library","Join_Count":1,"TARGET_FID":29,"InList":"Yes","Shape_Leng":1698829.19982,"Label":"Scenic Woods","Code":"SCE","Check_":"Ok","DISTRICT":"B","MEMBER":"JERRY DAVIS","PHONE":"832-393-3009","YEAR":2016},"geometry":{"type":"Point","coordinates":[-95.30124689328395,29.869886380736173]}},{"type":"Feature","properties":{"OBJECTID":30,"ADDRESS":"3624 Scott St","LIBRARY":"Smith Library","Join_Count":1,"TARGET_FID":30,"InList":"Yes","Shape_Leng":368879.351774,"Label":"Smith","Code":"SMI","Check_":"Ok","DISTRICT":"D","MEMBER":"DWIGHT BOYKINS","PHONE":"832-393-3001","YEAR":2016},"geometry":{"type":"Point","coordinates":[-95.35178745509451,29.72288606953645]}},{"type":"Feature","properties":{"OBJECTID":31,"ADDRESS":"702 Kress St","LIBRARY":"Tuttle Library","Join_Count":1,"TARGET_FID":31,"InList":"Yes","Shape_Leng":339371.266063,"Label":"Tuttle","Code":"TUT","Check_":"Ok","DISTRICT":"H","MEMBER":"KARLA CISNEROS","PHONE":"832-393-3003","YEAR":2016},"geometry":{"type":"Point","coordinates":[-95.30775178173155,29.776164360129506]}},{"type":"Feature","properties":{"OBJECTID":32,"ADDRESS":"7660 Clarewood Dr","LIBRARY":"Walter Library","Join_Count":1,"TARGET_FID":32,"InList":"Yes","Shape_Leng":185812.32741,"Label":"Walter","Code":"WAL","Check_":"Ok","DISTRICT":"J","MEMBER":"MIKE LASTER","PHONE":"832-393-3015","YEAR":2016},"geometry":{"type":"Point","coordinates":[-95.52079032786838,29.70981451378163]}},{"type":"Feature","properties":{"OBJECTID":33,"ADDRESS":"5260 Griggs Rd","LIBRARY":"Young Library","Join_Count":1,"TARGET_FID":33,"InList":"Yes","Shape_Leng":368879.351774,"Label":"Young","Code":"YOU","Check_":"Ok","DISTRICT":"D","MEMBER":"DWIGHT BOYKINS","PHONE":"832-393-3001","YEAR":2016},"geometry":{"type":"Point","coordinates":[-95.33526403895532,29.69712170422988]}},{"type":"Feature","properties":{"OBJECTID":34,"ADDRESS":"609 N. Eldridge","LIBRARY":"Kendall Library","Join_Count":1,"TARGET_FID":34,"InList":"Yes","Shape_Leng":299159.889897,"Label":"Kendall","Code":"KEN","Check_":"Ok","DISTRICT":"G","MEMBER":"GREG TRAVIS","PHONE":"832-393-3007","YEAR":2016},"geometry":{"type":"Point","coordinates":[-95.62064669240294,29.77306791523325]}},{"type":"Feature","properties":{"OBJECTID":35,"ADDRESS":"9002 Kingspoint Dr","LIBRARY":"Bracewell Library","Join_Count":1,"TARGET_FID":35,"InList":"Yes","Shape_Leng":368879.351774,"Label":"Bracewell","Code":"BRA","Check_":"Ok","DISTRICT":"D","MEMBER":"DWIGHT BOYKINS","PHONE":"832-393-3001","YEAR":2016},"geometry":{"type":"Point","coordinates":[-95.24532566580999,29.601697932932076]}},{"type":"Feature","properties":{"OBJECTID":36,"ADDRESS":"1500 McKinney","LIBRARY":"HPL Express Discovery Green","Join_Count":1,"TARGET_FID":36,"InList":"Yes","Shape_Leng":389474.390662,"Label":"Discovery","Code":"DIS","Check_":"Ok","DISTRICT":"I","MEMBER":"ROBERT GALLEGOS","PHONE":"832-393-3011","YEAR":2016},"geometry":{"type":"Point","coordinates":[-95.36059146533029,29.7540613656421]}},{"type":"Feature","properties":{"OBJECTID":37,"ADDRESS":"6400 High Star","LIBRARY":"HPL Express Southwest","Join_Count":1,"TARGET_FID":37,"InList":"Yes","Shape_Leng":185812.32741,"Label":"Southwest","Code":"SWC","Check_":"Ok","DISTRICT":"J","MEMBER":"MIKE LASTER","PHONE":"832-393-3015","YEAR":2016},"geometry":{"type":"Point","coordinates":[-95.49576691096524,29.711178596887756]}},{"type":"Feature","properties":{"OBJECTID":38,"ADDRESS":"10103 Fondren rd","LIBRARY":"Morris Frank Library - HPL Express Location","Join_Count":1,"TARGET_FID":38,"InList":"Yes","Shape_Leng":264709.503565,"Label":"Frank","Code":"FRA","Check_":"Ok","DISTRICT":"K","MEMBER":"LARRY GREEN","PHONE":"832-393-3016","YEAR":2016},"geometry":{"type":"Point","coordinates":[-95.50806027137247,29.669297302061125]}},{"type":"Feature","properties":{"OBJECTID":39,"ADDRESS":"1300 Victor St","LIBRARY":"The African American Library @ Gregory School","Join_Count":1,"TARGET_FID":39,"InList":"Yes","Shape_Leng":318703.617055,"Label":"African American","Code":"GRE","Check_":"Ok","DISTRICT":"C","MEMBER":"ELLEN R COHEN","PHONE":"832-393-3004","YEAR":2016},"geometry":{"type":"Point","coordinates":[-95.3804152138887,29.754088074861517]}},{"type":"Feature","properties":{"OBJECTID":40,"ADDRESS":"3810 W.Fuqua","LIBRARY":"Vinson Library","Join_Count":1,"TARGET_FID":40,"InList":"Yes","Shape_Leng":264709.503565,"Label":"Vinson","Code":"VIN","Check_":"Ok","DISTRICT":"K","MEMBER":"LARRY GREEN","PHONE":"832-393-3016","YEAR":2016},"geometry":{"type":"Point","coordinates":[-95.43411015399046,29.61402125329679]}},{"type":"Feature","properties":{"OBJECTID":41,"ADDRESS":"2510 Willowick","LIBRARY":"Looscan Library","Join_Count":1,"TARGET_FID":41,"InList":"Yes","Shape_Leng":null,"Label":"Looscan","Code":"LOO","Check_":"Ok","DISTRICT":"G","MEMBER":"GREG TRAVIS","PHONE":"832-393-3007","YEAR":2016},"geometry":{"type":"Point","coordinates":[-95.44200355355166,29.742648604096473]}},{"type":"Feature","properties":{"OBJECTID":42,"ADDRESS":"611 S. Sgt. Macario","LIBRARY":"Stanaker Library","Join_Count":1,"TARGET_FID":42,"InList":"Yes","Shape_Leng":null,"Label":"Stanaker","Code":"STA","Check_":"Ok","DISTRICT":"I","MEMBER":"ROBERT GALLEGOS","PHONE":"832-393-3011","YEAR":2016},"geometry":{"type":"Point","coordinates":[-95.30298304104143,29.74019594197649]}},{"type":"Feature","properties":{"OBJECTID":43,"ADDRESS":"550 Mckinney St","LIBRARY":"Julia Ideson Building","Join_Count":1,"TARGET_FID":43,"InList":"Yes","Shape_Leng":389474.390662,"Label":"Julia Ideson Building","Code":"JIB","Check_":"Ok-550 Mckinney","DISTRICT":"I","MEMBER":"ROBERT GALLEGOS","PHONE":"832-393-3011","YEAR":2016},"geometry":{"type":"Point","coordinates":[-95.3690893788763,29.758893914629404]}},{"type":"Feature","properties":{"OBJECTID":44,"ADDRESS":"550 Mckinney St","LIBRARY":"Houston Metropolitan Research Center@Julia Ideson","Join_Count":1,"TARGET_FID":43,"InList":"Yes","Shape_Leng":389474.390662,"Label":"Houston Metropolitan Research Center","Code":"JIB","Check_":"Ok-550 Mckinney","DISTRICT":"I","MEMBER":"ROBERT GALLEGOS","PHONE":"832-393-3011","YEAR":2016},"geometry":{"type":"Point","coordinates":[-95.36915657581984,29.758928574521033]}}]}